<?xml version="1.0" encoding="UTF-8"?><gpx xmlns="http://www.topografix.com/GPX/1/1" xmlns:xsi="http://www.w3.org/2001/XMLSchema-instance" creator="WebGIS" version="1.1" xsi:schemaLocation="http://www.topografix.com/GPX/1/1 http://www.topografix.com/GPX/1/1/gpx.xsd"><rte><name>SXBAT-LGKR0950-LGAV</name><rtept lat="39.6019" lon="19.9122"><name>LGKR</name></rtept><rtept lat="39.4431" lon="20.0706"><name>KRK</name></rtept><rtept lat="39.5083" lon="20.2711"><name>IGOU</name></rtept><rtept lat="39.2622" lon="20.4303"><name>PARNA</name></rtept><rtept lat="38.315" lon="22.2322"><name>IXONI</name></rtept><rtept lat="38.0614" lon="22.6978"><name>PIKAD</name></rtept><rtept lat="37.9367" lon="23.9444"><name>LGAV</name></rtept></rte></gpx>